stop_id,stop_name,stop_lat,stop_lon                                                                                                                   
04040,Estación de tren Zaragoza-Delicias,41.658649 ,-0.911615                                                                                         
05102,Estación de tren San Xoan,43.494664 ,-8.213713                                                                                                  
05103,Estación de tren Santa Icía,43.500113 ,-8.199581                                                                                                
05104,Estación de tren Virxe Do Mar,43.496509 ,-8.204876                                                                                              
05105,Estación de tren PiÑeiros,43.509526 ,-8.183968                                                                                                  
05106,Estación de tren O Ponto,43.514774 ,-8.177783                                                                                                   
05107,Estación de tren Xuvia,43.517113 ,-8.161322                                                                                                     
05108,Estación de tren O Alto Do CastiÑeiro,43.503179 ,-8.195559                                                                                      
05109,Estación de tren Ferrerías,43.527976 ,-8.150454                                                                                                 
05111,Estación de tren Sedes,43.542607 ,-8.140199                                                                                                     
05113,Estación de tren Feve-Pedroso De Narón,43.536748 ,-8.109213                                                                                     
05115,Estación de tren San SadurniÑo,43.546021 ,-8.077931                                                                                             
05117,Estación de tren Llamas,43.5472900,-8.0492450                                                                                                   
05119,Estación de tren Apalla,43.5504630,-8.0186490                                                                                                   
05121,Estación de tren Moeche,43.562171 ,-8.002732                                                                                                    
05123,Estación de tren Labacengos,43.56528  ,-7.980225                                                                                                
05125,Estación de tren Entrambarrias,43.57706  ,-7.954257                                                                                             
05127,Estación de tren Cerdido,43.5872050,-7.9346260                                                                                                  
05129,Estación de tren A Cuqueira,43.6078760,-7.9218320                                                                                               
05131,Estación de tren Vilavedelle,43.6409800,-7.9161920                                                                                              
05133,Estación de tren Xivares,43.6660730,-7.9026410                                                                                                  
05135,Estación de tren Cabrera De Mar,43.660887 ,-7.873495                                                                                            
05137,Estación de tren Senra,43.668783 ,-7.8545455                                                                                                    
05139,Estación de tren Ortigueira,43.686268 ,-7.849488                                                                                                
05201,Estación de tren Gijón Ram,43.535175 ,-5.698318                                                                                                 
05203,Estación de tren TremaÑes-CarreÑo,43.528549 ,-5.694869                                                                                          
05204,Estación de tren Centru De Tresportes,43.531135 ,-5.706739                                                                                      
05207,Estación de tren AboÑo Apd,43.5550500,-5.7235900                                                                                                
05208,Estación de tren Xibares,43.565927 ,-5.728723                                                                                                   
05209,Estación de tren Perlora,43.5807800,-5.7536800                                                                                                  
05210,Estación de tren Candás Apd,43.5865400,-5.7680100                                                                                               
05211,Estación de tren Candás,43.584718 ,-5.772722                                                                                                    
05213,Estación de tren El Regueral,43.5804800,-5.7976300                                                                                              
05215,Estación de tren San Zabornín,43.5690800,-5.8253300                                                                                             
05216,Estación de tren Gudín-Llaminación,43.552295 ,-5.865382                                                                                         
05217,Estación de tren Trasona/Tresona,43.5518000,-5.8743800                                                                                          
05219,Estación de tren Llaranes,43.5541500,-5.8970300                                                                                                 
05220,Estación de tren Cristalería,43.5755430,-5.9293450                                                                                              
05221,Estación de tren Avilés Apd,43.554627 ,-5.917472                                                                                                
05222,Estación de tren Avilés-Cim,43.5612740,-5.9229240                                                                                               
05224,Estación de tren Raíces Nuevo/La Fundición,43.576334 ,-5.939915                                                                                 
05225,Estación de tren Salinas,43.5703900,-5.9566300                                                                                                  
05227,Estación de tren Piedrasblancas,43.556554 ,-5.975562                                                                                            
05229,Estación de tren Vegarrozadas,43.551162 ,-5.99556                                                                                               
05231,Estación de tren Santiagu'l Monte,43.540979 ,-6.028002                                                                                          
05232,Estación de tren El Parador,43.5352400,-6.0705300                                                                                               
05233,Estación de tren Sotu'l Barcu,43.5292900,-6.0712400                                                                                             
05235,Estación de tren Riberas,43.502742 ,-6.074331                                                                                                   
05237,Estación de tren PeÑaullán,43.491163 ,-6.093979                                                                                                 
05239,Estación de tren Santianes,43.503755 ,-6.091829                                                                                                 
05241,Estación de tren Los Cabos,43.5124440,-6.0975140                                                                                                
05243,Estación de tren Muros De Nalón,43.542957 ,-6.111114                                                                                            
05244,Estación de tren El Pito-PiÑera,43.546893 ,-6.143335                                                                                            
05245,Estación de tren Cudillero,43.550925 ,-6.151968                                                                                                 
05300,Estación de tren El Vallobín,43.3653000,-5.8649000                                                                                              
05301,Estación de tren L'argaÑosa - Llapiés,43.365832 ,-5.870018                                                                                      
05302,Estación de tren As Campas,43.3638300,-5.8834600                                                                                                
05303,Estación de tren Les Maces,43.3586700,-5.8975600                                                                                                
05304,Estación de tren San Claudio/San Cloyo,43.355333 ,-5.917811                                                                                     
05306,Estación de tren San Pedru Nora,43.3687400,-5.9588000                                                                                           
05308,Estación de tren Sotu-Udrión,43.3557070,-5.9653520                                                                                              
05311,Estación de tren Trubia,43.3485300,-5.9676500                                                                                                   
05313,Estación de tren Santa María Grau,43.3837900,-5.9826300                                                                                         
05315,Estación de tren Veiga D'anzu,43.3893500,-6.0058600                                                                                             
05316,Estación de tren PeÑaflor,43.402931 ,-6.045405                                                                                                  
05317,Estación de tren Grau/Grado,43.3945300,-6.0637200                                                                                               
05319,Estación de tren Sandiche,43.425605 ,-6.05996                                                                                                   
05320,Estación de tren Aces,43.4399280,-6.0657890                                                                                                     
05321,Estación de tren San Román,43.4489560,-6.0772830                                                                                                
05323,Estación de tren Beifar,43.4700840,-6.0988770                                                                                                   
05325,Estación de tren Pravia,43.4909700,-6.1106200                                                                                                   
05327,Estación de tren San Ranón,43.5164940,-6.0820650                                                                                                
05329,Estación de tren San Esteban,43.552084 ,-6.087238                                                                                               
05361,Estación de tren BaíÑa,43.274515 ,-5.828206                                                                                                     
05369,Estación de tren Mieres Del Camín-El Vasco,43.2502800,-5.7799900                                                                                
05371,Estación de tren Santuyano-Caudalia,43.22628  ,-5.783320                                                                                        
05373,Estación de tren Figareo,43.2139570,-5.7839830                                                                                                  
05375,Estación de tren Uxo-Taruelo,43.2006000,-5.7876500                                                                                              
05376,Estación de tren Santa Cruz,43.1959450,-5.7775460                                                                                               
05377,Estación de tren Caborana,43.1760210,-5.7547090                                                                                                 
05379,Estación de tren Morea/Moreda,43.1707800,-5.7418920                                                                                             
05380,Estación de tren San Antonio,43.1688900,-5.6967710                                                                                              
05381,Estación de tren L'oyanco,43.1665400,-5.7217800                                                                                                 
05382,Estación de tren Corigos,43.1642800,-5.6766600                                                                                                  
05383,Estación de tren PiÑeres,43.1659700,-5.6842500                                                                                                  
05384,Estación de tren Santana-Soto,43.16478  ,-5.646112                                                                                              
05385,Estación de tren CabaÑaquinta/Cabanaquinta,43.1608300,-5.6249100                                                                                
05387,Estación de tren L.levinco,43.151098 ,-5.600266                                                                                                 
05389,Estación de tren Col.lanzo,43.124043 ,-5.566384                                                                                                 
05403,Estación de tren TremaÑes-Llangréu/Langreo,43.528766 ,-5.694847                                                                                 
05405,Estación de tren Sotiello,43.507289 ,-5.726564                                                                                                  
05407,Estación de tren Pinzales,43.4865850,-5.7196960                                                                                                 
05409,Estación de tren Aguda,43.46603  ,-5.72606                                                                                                      
05410,Estación de tren Xixún,43.370778 ,-5.69338                                                                                                      
05411,Estación de tren La Florida,43.4345900,-5.7100000                                                                                               
05412,Estación de tren Puente Buracos,43.4481100,-5.7173900                                                                                           
05413,Estación de tren NoreÑa,43.3939800,-5.7037100                                                                                                   
05415,Estación de tren Bendición,43.3633710,-5.6803400                                                                                                
05416,Estación de tren Valdesoto,43.3584160,-5.6585900                                                                                                
05417,Estación de tren Carbayín,43.3511680,-5.6347560                                                                                                 
05420,Estación de tren Curuxona,43.339403 ,-5.63081                                                                                                   
05421,Estación de tren Tiuya/Tuilla,43.328069 ,-5.643052                                                                                              
05425,Estación de tren La Felguera-Vega,43.3105200,-5.6859000                                                                                         
05429,Estación de tren Sama-Los Llerones,43.298761 ,-5.683358                                                                                         
05431,Estación de tren CiaÑu,43.290721 ,-5.667903                                                                                                     
05432,Estación de tren San Vicente,43.28911  ,-5.65285                                                                                                
05433,Estación de tren L'entregu-La Escura,43.28953  ,-5.640808                                                                                       
05435,Estación de tren Carrocera,43.28774  ,-5.62637                                                                                                  
05436,Estación de tren Samartín,43.278378 ,-5.615305                                                                                                  
05437,Estación de tren Sotrondio,43.2757800,-5.6048100                                                                                                
05439,Estación de tren Blimea,43.2708200,-5.5903000                                                                                                   
05441,Estación de tren Los Barreros/Barredos,43.2598700,-5.5750400                                                                                    
05443,Estación de tren La Pola De Llaviana/Pola De Laviana,43.2506800,-5.5644900                                                                      
05451,Estación de tren Bilbao La Concordia,43.259998 ,-2.926286                                                                                       
05455,Estación de tren Basurto Hospital,43.259754 ,-2.953828                                                                                          
05457,Estación de tren Feve-Zorroza Zorrozgoiti,43.273951 ,-2.974167                                                                                  
05459,Estación de tren Santa Agueda,43.261854 ,-2.973004                                                                                              
05460,Estación de tren Kastrexana,43.255361 ,-2.972073                                                                                                
05461,Estación de tren Irauregui,43.248317 ,-2.990089                                                                                                 
05463,Estación de tren Zaramillo,43.2332250,-3.0160370                                                                                                
05465,Estación de tren La Quadra,43.222712 ,-3.024874                                                                                                 
05467,Estación de tren Sodupe,43.202057 ,-3.050494                                                                                                    
05469,Estación de tren Artxube,43.201091 ,-3.071677                                                                                                   
05470,Estación de tren Lambarri,43.205985 ,-3.08262                                                                                                   
05471,Estación de tren GüeÑes,43.20908  ,-3.095381                                                                                                    
05473,Estación de tren Aranguren,43.210494 ,-3.109354                                                                                                 
05474,Estación de tren Aranguren/Apdro.,43.210347 ,-3.114075                                                                                          
05475,Estación de tren Zalla,43.212797 ,-3.133284                                                                                                     
05477,Estación de tren Colegio,43.2108840,-3.1387030                                                                                                  
05479,Estación de tren Ibarra,43.2039570,-3.1448310                                                                                                   
05481,Estación de tren La Herrera,43.203182 ,-3.170446                                                                                                
05483,Estación de tren Balmaseda,43.196388 ,-3.189924                                                                                                 
05485,Estación de tren La Calzada,43.190121 ,-3.197160                                                                                                
05501,Estación de tren Oviedo Ram,43.366841 ,-5.854263                                                                                                
05504,Estación de tren Parque Principado,43.3868100,-5.8088900                                                                                        
05505,Estación de tren Colloto/Cualloto,43.3794400,-5.7922500                                                                                         
05507,Estación de tren Meres,43.380917 ,-5.748779                                                                                                     
05508,Estación de tren Fonciello,43.3143000,-5.3700000                                                                                                
05509,Estación de tren El Berrón,43.3825250,-5.7026550                                                                                                
05511,Estación de tren La Carrera,43.386909 ,-5.675275                                                                                                
05513,Estación de tren La Pola Siero,43.388113 ,-5.664779                                                                                             
05515,Estación de tren Los Corros,43.376828 ,-5.601385                                                                                                
05517,Estación de tren Lieres,43.38058  ,-5.582573                                                                                                    
05519,Estación de tren Rianes,43.3789387,-5.5628276                                                                                                   
05521,Estación de tren El Remediu,43.375076 ,-5.546238                                                                                                
05522,Estación de tren Llames,43.3687800,-5.5256600                                                                                                   
05523,Estación de tren Nava,43.3611700,-5.5092900                                                                                                     
05525,Estación de tren Fuentesanta/Huentesanta,43.3554700,-5.4782400                                                                                  
05527,Estación de tren Ceceda/Cecea,43.3561800,-5.4511700                                                                                             
05529,Estación de tren Carancos,43.355586 ,-5.434425                                                                                                  
05531,Estación de tren Pintueles,43.3614480,-5.3874960                                                                                                
05533,Estación de tren L'infiestu,43.351777 ,-5.36921                                                                                                 
05534,Estación de tren L'infiestu Apd,43.3438950,-5.3572830                                                                                           
05601,Estación de tren Santander Ram,43.4583294,-3.8120706                                                                                            
05602,Estación de tren Feve-Valdecilla La Marga,43.452804 ,-3.828602                                                                                  
05603,Estación de tren CazoÑa,43.455249 ,-3.841491                                                                                                    
05604,Estación de tren Adarzo,43.453465 ,-3.85579                                                                                                     
05605,Estación de tren Bezana,43.4409900,-3.8996100                                                                                                   
05607,Estación de tren Mortera,43.435207 ,-3.918223                                                                                                   
05609,Estación de tren Feve-Boo De Piélago,43.4316340,-3.9464320                                                                                      
05611,Estación de tren Mogro,43.4250400,-3.9607600                                                                                                    
05613,Estación de tren Gornazo,43.409638 ,-3.988686                                                                                                   
05615,Estación de tren Mar,43.398343 ,-4.010047                                                                                                       
05617,Estación de tren Requejada,43.3913700,-4.0279800                                                                                                
05619,Estación de tren Barreda,43.37424  ,-4.04187                                                                                                    
05620,Estación de tren Altamira,43.3536040,-4.0606090                                                                                                 
05621,Estación de tren Feve-Torrelavega/Centro,43.35093  ,-4.051009                                                                                   
05622,Estación de tren Ganzo,43.356546 ,-4.070291                                                                                                     
05623,Estación de tren Puente San Miguel,43.3586380,-4.0877570                                                                                        
05625,Estación de tren Santa Isabel De Quijas,43.3589770,-4.1118650                                                                                   
05627,Estación de tren San Pedro De Rudagüera,43.361127 ,-4.149519                                                                                    
05629,Estación de tren Golbardo,43.3408710,-4.1555960                                                                                                 
05631,Estación de tren Casar De Periedo,43.3387700,-4.1747300                                                                                         
05633,Estación de tren Virgen De La PeÑa,43.323142 ,-4.193685                                                                                         
05635,Estación de tren Ontoria,43.3152500,-4.2155400                                                                                                  
05637,Estación de tren Cabezón De La Sal,43.3077700,-4.2319600                                                                                        
05651,Estación de tren Feve-Nueva MontaÑa,43.440103 ,-3.849398                                                                                        
05652,Estación de tren Valle Real,43.427513 ,-3.840498                                                                                                
05655,Estación de tren Feve-MaliaÑo La Vidriera,43.416083 ,-3.841081                                                                                  
05657,Estación de tren Astillero,43.4037100,-3.8212500                                                                                                
05658,Estación de tren La Cantábrica,43.397296 ,-3.814914                                                                                             
05659,Estación de tren San Salvador,43.393758 ,-3.803777                                                                                              
05661,Estación de tren Heras,43.401139 ,-3.766305                                                                                                     
05663,Estación de tren Orejo,43.399487 ,-3.737923                                                                                                     
05665,Estación de tren Solares,43.3874800,-3.7313100                                                                                                  
05667,Estación de tren CeceÑas,43.376441 ,-3.717872                                                                                                   
05669,Estación de tren La Cavada,43.350589 ,-3.706766                                                                                                 
05671,Estación de tren Liérganes,43.3448200,-3.7421200                                                                                                
05721,Estación de tren Arla-Berrón,43.1666990,-3.2275890                                                                                              
05722,Estación de tren Ungo Nava,43.1428940,-3.2647160                                                                                                
05724,Estación de tren Mercadillo-Villasana,43.1052090,-3.2644690                                                                                     
05727,Estación de tren Cadagua,43.0681710,-3.3473390                                                                                                  
05730,Estación de tren Bercedo Montija,43.0884790,-3.4560000                                                                                          
05731,Estación de tren Quintana De Los Prados,43.0800000,-3.5100000                                                                                   
05732,Estación de tren Espinosa De Los Monteros,43.0742520,-3.5371160                                                                                 
05733,Estación de tren Redondo,43.0629930,-3.6078950                                                                                                  
05734,Estación de tren Sotoscueva,43.0452920,-3.6882530                                                                                               
05735,Estación de tren Pedrosa,43.0123670,-3.7378520                                                                                                  
05736,Estación de tren Dosante Cidad,43.0012500,-3.7452500                                                                                            
05737,Estación de tren Robredo Ahedo,43.0190940,-3.8092310                                                                                            
05738,Estación de tren Soncillo,43.005809 ,-3.844888                                                                                                  
05739,Estación de tren CabaÑas De Virtus,42.996397 ,-3.858466                                                                                         
05740,Estación de tren Arija,42.9912920,-3.9450060                                                                                                    
05741,Estación de tren Llano,42.9880620,-3.9823570                                                                                                    
05742,Estación de tren Feve-Las Rozas De Valdearroyo,42.9736050,-4.0298640                                                                            
05743,Estación de tren Montes Claros,42.9343230,-4.0500730                                                                                            
05744,Estación de tren Los Carabeos,42.9103290,-4.0752110                                                                                             
05747,Estación de tren Cillamayor,42.8577520,-4.2791780                                                                                               
05748,Estación de tren Salinas De Pisuerga,42.8512710,-4.3862090                                                                                      
05749,Estación de tren Vado Cervera,42.8393600,-4.4947700                                                                                             
05750,Estación de tren Castrejón De La PeÑa,42.8119900,-4.6016200                                                                                     
05751,Estación de tren Villaverde Tarilonte,42.8183530,-4.6854190                                                                                     
05752,Estación de tren SantibaÑez De La PeÑa,42.8020400,-4.7414500                                                                                    
05753,Estación de tren Guardo/Apdro.,42.7877600,-4.8451920                                                                                            
05754,Estación de tren Guardo,42.7910800,-4.8520100                                                                                                   
05755,Estación de tren La Llama De La GuzpeÑa,42.7702740,-5.0412990                                                                                   
05756,Estación de tren La Espina,42.787317 ,-4.905185                                                                                                 
05757,Estación de tren Valcuende,42.7656200,-4.9292100                                                                                                
05758,Estación de tren Puente Almuhey,42.78764  ,-4.971911                                                                                            
05759,Estación de tren Prado De La GuzpeÑa,42.7838799,-5.0264800                                                                                      
05760,Estación de tren Valle De Las Casas,42.7677800,-5.0711100                                                                                       
05761,Estación de tren Cistierna,42.8031400,-5.1307600                                                                                                
05762,Estación de tren Yugueros,42.809817 ,-5.180063                                                                                                  
05763,Estación de tren La Ercina,42.8086800,-5.2140870                                                                                                
05764,Estación de tren Barrillos,42.812364 ,-5.283128                                                                                                 
05765,Estación de tren Feve-La Losilla,42.838561 ,-5.318151                                                                                           
05766,Estación de tren BoÑar,42.862759 ,-5.328534                                                                                                     
05767,Estación de tren La Vecilla,42.855095 ,-5.412162                                                                                                
05768,Estación de tren Aviados,42.854774 ,-5.442816                                                                                                   
05769,Estación de tren La Valcueva,42.84966  ,-5.486957                                                                                               
05770,Estación de tren Matallana,42.841068 ,-5.522135                                                                                                 
05771,Estación de tren Pardavé,42.806349 ,-5.508186                                                                                                   
05772,Estación de tren Pedrún,42.791013 ,-5.506954                                                                                                    
05773,Estación de tren Manzaneda,42.754603 ,-5.51641                                                                                                  
05774,Estación de tren Garrafe,42.734502 ,-5.52421                                                                                                    
05775,Estación de tren Palazuelo,42.707132 ,-5.533764                                                                                                 
05776,Estación de tren San Feliz,42.682301 ,-5.537782                                                                                                 
05777,Estación de tren Villaquilambre,42.6469340,-5.5540460                                                                                           
05785,Estación de tren Villasinta,42.657554 ,-5.549298                                                                                                
05786,Estación de tren Matueca,42.771532 ,-5.51194                                                                                                    
05787,Estación de tren Naredo,42.833441 ,-5.523002                                                                                                    
05788,Estación de tren Robles,42.840743 ,-5.507292                                                                                                    
05789,Estación de tren Campohermoso,42.855941 ,-5.42872                                                                                               
05790,Estación de tren Sorriba,42.5800000,-5.6500000                                                                                                  
05793,Estación de tren La Mata De La Riba,42.858578 ,-5.339645                                                                                        
05794,Estación de tren La Raya,42.629108 ,-5.561383                                                                                                   
05795,Estación de tren Feve-Otero,42.859568 ,-5.389983                                                                                                
05796,Estación de tren Villa Romana,42.629111 ,-5.561338                                                                                              
05797,Estación de tren Valdepiélago,42.8650500,-5.4032170                                                                                             
05798,Estación de tren La Devesa,42.820148 ,-5.302187                                                                                                 
05799,Estación de tren Cerezal De La GuzpeÑa,42.7798340,-5.0058510                                                                                    
05803,Estación de tren La Asunción/Universidad,42.615821 ,-5.566379                                                                                   
05805,Estación de tren Barrio De Las Ollas,42.858586 ,-5.339549                                                                                       
05807,Estación de tren Valderilla,42.717641 ,-5.530277                                                                                                
05951,Estación de tren Feve-Cartagena Plaza Bastarreche,37.603575 ,-0.977029                                                                          
05952,Estación de tren Hospital,37.60529  ,-0.960681                                                                                                  
05953,Estación de tren Media Legua,37.607888 ,-0.953643                                                                                               
05955,Estación de tren Vista Alegre,37.609294 ,-0.944179                                                                                              
05957,Estación de tren El Abrevadero,37.609727 ,-0.931259                                                                                             
05959,Estación de tren Alumbres,37.609929 ,-0.914841                                                                                                  
05961,Estación de tren La Esperanza,37.613793 ,-0.891342                                                                                              
05963,Estación de tren La Unión Vieja,37.615466 ,-0.881629                                                                                            
05965,Estación de tren La Unión,37.615673 ,-0.875217                                                                                                  
05967,Estación de tren Sierra Minera,37.61985  ,-0.864864                                                                                             
05969,Estación de tren Llano Del Beal,37.626055 ,-0.83621                                                                                             
05971,Estación de tren El Estrecho,37.627603 ,-0.829591                                                                                               
05973,Estación de tren Los Nietos Viejos,37.646924 ,-0.791485                                                                                         
05975,Estación de tren Los Nietos Pescadería,37.649354 ,-0.787864                                                                                     
05977,Estación de tren Los Nietos,37.651839 ,-0.796983                                                                                                
06001,Estación de tren Librilla (apd),37.8865569,-1.3471673                                                                                           
06002,Estación de tren Alhama De Murcia,37.8493837,-1.4145055                                                                                         
06003,Estación de tren Totana,37.7635101,-1.4956127                                                                                                   
06004,Estación de tren La Hoya (apd),37.7037338,-1.5954024                                                                                            
06005,Estación de tren Lorca-San Diego (apd),37.6805717,-1.6858944                                                                                    
06006,Estación de tren Lorca Sutullena,37.6725714,-1.6959002                                                                                          
06007,Estación de tren Puerto Lumbreras (apt),37.5809194,-1.731775                                                                                    
06008,Estación de tren Alcantarilla Los Romanos,37.9642527,-1.2170108                                                                                 
06100,Estación de tren Almendricos,37.4748912,-1.7796447                                                                                              
07001,Estación de tren Pulpi (apd),37.3999194,-1.7501361                                                                                              
07003,Estación de tren Jaravia (apd),37.3925027,-1.693175                                                                                             
07004,Estación de tren águilas,37.4098333,-1.5725777                                                                                                  
07007,Estación de tren Aguilas-Lb,37.4119055,-1.5859138                                                                                               
10000,Estación de tren Madrid-Principe Pio,40.4215361,-3.7190805                                                                                      
10001,Estación de tren Aravaca (apd-Cgd),40.4484027,-3.7855512                                                                                        
10002,Estación de tren Pozuelo,40.4473443,-3.8002865                                                                                                  
10005,Estación de tren Las Rozas (apd),40.4942255,-3.8681086                                                                                          
10007,Estación de tren Majadahond,40.4742448,-3.8452712                                                                                               
10010,Estación de tren El Barrial,40.4653336,-3.8078526                                                                                               
10100,Estación de tren Pinar De Las Rozas,40.5222566,-3.8822585                                                                                       
10101,Estación de tren Las Matas,40.5523275,-3.8967651                                                                                                
10103,Estación de tren Torrelodones,40.5745499,-3.9565955                                                                                             
10104,Estación de tren Galapagar-La Navata,40.6002664,-3.9822646                                                                                      
10200,Estación de tren Villalba De Guadarrama,40.6265067,-4.0081871                                                                                   
10201,Estación de tren San Yago,40.6178786,-4.0312349                                                                                                 
10202,Estación de tren Las Zorreras-Navalquejigo,40.6092725,-4.0463634                                                                                
10203,Estación de tren El Escorial,40.5852811,-4.1324479                                                                                              
10204,Estación de tren Zarzalejo,40.538710 ,-4.158180                                                                                                 
10205,Estación de tren Robledo De Chavela,40.520802 ,-4.246774                                                                                        
10206,Estación de tren Santa María De La Alameda-Peguerinos,40.568937 ,-4.269332                                                                      
11305,Estación de tren Brinkola-OÑati,43.019887 ,-2.334469                                                                                            
11306,Estación de tren Legazpi,43.052263 ,-2.329396                                                                                                   
11400,Estación de tren Zumarraga,43.088273 ,-2.318462                                                                                                 
11402,Estación de tren Ormaiztegui,43.040151 ,-2.255831                                                                                               
11404,Estación de tren Beasain,43.046174 ,-2.203234                                                                                                   
11405,Estación de tren Ordizia/Ordicia,43.052583 ,-2.181019                                                                                           
11406,Estación de tren Itsasondo(apd),43.068955 ,-2.162736                                                                                            
11407,Estación de tren Legorreta,43.085187 ,-2.14555                                                                                                  
11408,Estación de tren Ikazteguieta (apd),43.094977 ,-2.126252                                                                                        
11409,Estación de tren Alegia,43.10214  ,-2.099346                                                                                                    
11500,Estación de tren Tolosa,43.131936 ,-2.085247                                                                                                    
11501,Estación de tren Tolosa Centro,43.13597  ,-2.078512                                                                                             
11502,Estación de tren Anoeta,43.165233 ,-2.071624                                                                                                    
11503,Estación de tren Villabona-Zizurkil,43.189391 ,-2.055641                                                                                        
11504,Estación de tren Andoain-Centro,43.214729 ,-2.020394                                                                                            
11505,Estación de tren Andoain,43.221715 ,-2.016357                                                                                                   
11506,Estación de tren Urnieta,43.243416 ,-1.991492                                                                                                   
11507,Estación de tren Hernani-Centro,43.261977 ,-1.975726                                                                                            
11508,Estación de tren Hernani,43.272283 ,-1.964175                                                                                                   
11509,Estación de tren Martutene,43.29442  ,-1.956981                                                                                                 
11510,Estación de tren Loiola,43.304772 ,-1.964289                                                                                                    
11511,Estación de tren San Sebastián/Donostia,43.317669 ,-1.976704                                                                                    
11512,Estación de tren Gros,43.322077 ,-1.972632                                                                                                      
11513,Estación de tren Ategorrieta (apd),43.321814 ,-1.967016                                                                                         
11514,Estación de tren Herrera (apd),43.320009 ,-1.917946                                                                                             
11515,Estación de tren Pasaia,43.318764 ,-1.904324                                                                                                    
11516,Estación de tren Lezo-Errenteria,43.313544 ,-1.895015                                                                                           
11518,Estación de tren Ventas De Irun,43.331008 ,-1.816203                                                                                            
11522,Estación de tren Intxaurrondo,43.32068  ,-1.952632                                                                                              
11600,Estación de tren Irun,43.339582 ,-1.800192                                                                                                      
12001,Estación de tren Los Negrales,40.6385681,-4.0220307                                                                                             
12002,Estación de tren Alpedrete-Mataespesa,40.6580931,-4.0350813                                                                                     
12004,Estación de tren Collado Mediano,40.6927600,-4.0359164                                                                                          
12005,Estación de tren Los Molinos-Guadarrama,40.7066368,-4.0673999                                                                                   
12006,Estación de tren Cercedilla,40.7375282,-4.0664502                                                                                               
12020,Estación de tren Puerto Navacerrada (apt),40.7842464,-4.0050168                                                                                 
12023,Estación de tren Los Cotos (apt),40.8223493,-3.9644101                                                                                          
13100,Estación de tren OrduÑa,42.994971 ,-3.014669                                                                                                    
13101,Estación de tren Amurrio,43.042794 ,-3.004019                                                                                                   
13102,Estación de tren Salbio,43.064293 ,-2.995857                                                                                                    
13103,Estación de tren Luiaondo,43.093554 ,-2.999662                                                                                                  
13104,Estación de tren Santa Cruz De Llodio,43.132448 ,-2.970197                                                                                      
13106,Estación de tren Llodio,43.142721 ,-2.959916                                                                                                    
13107,Estación de tren Areta,43.146085 ,-2.945719                                                                                                     
13108,Estación de tren Arbide,43.159117 ,-2.929893                                                                                                    
13109,Estación de tren Arrankudiaga (apd),43.172858 ,-2.915437                                                                                        
13110,Estación de tren Ugao-Miraballes,43.180117 ,-2.903493                                                                                           
13111,Estación de tren Arrigorriaga,43.214271 ,-2.888918                                                                                              
13112,Estación de tren Basauri (apd),43.226952 ,-2.888881                                                                                             
13113,Estación de tren Bidebieta-Basauri,43.238817 ,-2.892993                                                                                         
13114,Estación de tren Ollargan,43.244697 ,-2.912016                                                                                                  
13115,Estación de tren Bakiola,43.176332 ,-2.909743                                                                                                   
13116,Estación de tren IÑarratxu,43.017154 ,-3.011418                                                                                                 
13117,Estación de tren Arakaldo,43.154817 ,-2.938893                                                                                                  
13118,Estación de tren Abaroa-Sm,43.236846 ,-2.889762                                                                                                 
13119,Estación de tren La PeÑa,43.239764 ,-2.923413                                                                                                   
13120,Estación de tren Miribilla,43.25325  ,-2.9294                                                                                                   
13121,Estación de tren Amurrio Iparralde,43.0513   ,-2.99965                                                                                          
13200,Estación de tren Bilbao-Abando Indalecio Prieto,43.259609 ,-2.92915                                                                             
13205,Estación de tren Zabalburu,43.256752 ,-2.932127                                                                                                 
13206,Estación de tren Ametzola,43.255428 ,-2.940762                                                                                                  
13207,Estación de tren Autonomia,43.257784 ,-2.94615                                                                                                  
13208,Estación de tren S. Mames,43.261825 ,-2.948816                                                                                                  
13303,Estación de tren Olabeaga,43.264166 ,-2.957191                                                                                                  
13304,Estación de tren Zorrotza,43.277780 ,-2.972117                                                                                                  
13305,Estación de tren Lutxana-Barakaldo,43.288106 ,-2.975335                                                                                         
13400,Estación de tren Desertu-Barakaldo,43.300475 ,-2.984948                                                                                         
13401,Estación de tren Sestao,43.310243 ,-2.997303                                                                                                    
13402,Estación de tren La Iberia (apd),43.311861 ,-3.00425                                                                                            
13403,Estación de tren Portugalete,43.318728 ,-3.015567                                                                                               
13404,Estación de tren PeÑota,43.329766 ,-3.031149                                                                                                    
13405,Estación de tren Santurtzi,43.335671 ,-3.041196                                                                                                 
13501,Estación de tren Galindo,43.300847 ,-3.021017                                                                                                   
13502,Estación de tren Trapaga,43.30335  ,-3.0351                                                                                                     
13503,Estación de tren Valle De Trapaga/Trapagaran,43.307763 ,-3.039786                                                                               
13504,Estación de tren Ortuella,43.310251 ,-3.058531                                                                                                  
13505,Estación de tren Putxeta,43.31623  ,-3.089951                                                                                                   
13506,Estación de tren Muskiz,43.321472 ,-3.112317                                                                                                    
13507,Estación de tren Urioste,43.306411 ,-3.046882                                                                                                   
13508,Estación de tren Gallarta (apd),43.320472 ,-3.073542                                                                                            
13509,Estación de tren Sagrada F.,43.308212 ,-3.052896                                                                                                
14200,Estación de tren Mataporquera,42.8709010,-4.1654060                                                                                             
14202,Estación de tren Reinosa,42.995158 ,-4.139917                                                                                                   
14203,Estación de tren Lantueno-Santiurde,43.064618 ,-4.086294                                                                                        
14204,Estación de tren Pesquera,43.083718 ,-4.079594                                                                                                  
14206,Estación de tren Bárcena,43.130561 ,-4.056662                                                                                                   
14207,Estación de tren Molledo-Portolín,43.146897 ,-4.043563                                                                                          
14208,Estación de tren Santa Cruz De IguÑa,43.167067 ,-4.048194                                                                                       
14209,Estación de tren Las Fraguas,43.194318 ,-4.057394                                                                                               
14210,Estación de tren Los Corrales De Buelna,43.257961 ,-4.064679                                                                                    
14211,Estación de tren Las Caldas De Besaya,43.295518 ,-4.075294                                                                                      
14212,Estación de tren Viernoles,43.327437 ,-4.042475                                                                                                 
14213,Estación de tren Torrelavega,43.33974  ,-4.02896                                                                                                
14214,Estación de tren Sierrapando,43.347118 ,-3.991694                                                                                               
14215,Estación de tren Zurita,43.357826 ,-3.979697                                                                                                    
14216,Estación de tren Renedo,43.355636 ,-3.953732                                                                                                    
14217,Estación de tren Parbayón,43.375214 ,-3.90092                                                                                                   
14218,Estación de tren Guarnizo,43.398271 ,-3.850226                                                                                                  
14219,Estación de tren Boo,43.404295 ,-3.8432                                                                                                         
14220,Estación de tren MaliaÑo,43.41664  ,-3.841901                                                                                                   
14221,Estación de tren Muriedas,43.4265260,-3.8482400                                                                                                 
14223,Estación de tren Santander,43.458575 ,-3.811223                                                                                                 
14230,Estación de tren Valdecilla,43.450492 ,-3.838889                                                                                                
14231,Estación de tren Nueva MontaÑa,43.445244 ,-3.846303                                                                                             
14232,Estación de tren Lombera,43.276219 ,-4.071153                                                                                                   
14233,Estación de tren Río Ebro,43.025658 ,-4.097112                                                                                                  
14234,Estación de tren Pujayo,43.123726 ,-4.08172                                                                                                     
14235,Estación de tren Arenas De IguÑa,43.186618 ,-4.054394                                                                                           
14236,Estación de tren VioÑo,43.360717 ,-3.964874                                                                                                     
14237,Estación de tren Muriedas-Bahía,43.435311 ,-3.850821                                                                                            
15118,Estación de tren Fierros,43.07152  ,-5.769496                                                                                                   
15119,Estación de tren La Frecha,43.09722  ,-5.797896                                                                                                 
15120,Estación de tren Campumanes,43.11112  ,-5.814196                                                                                                
15121,Estación de tren La Cobertoria,43.130231 ,-5.812825                                                                                             
15122,Estación de tren La Pola,43.158942 ,-5.831075                                                                                                   
15123,Estación de tren Vil.layana,43.186778 ,-5.803633                                                                                                
15200,Estación de tren Uxo,43.20702  ,-5.791496                                                                                                       
15202,Estación de tren Santuyano,43.214944 ,-5.785817                                                                                                 
15203,Estación de tren Mieres Del Camín,43.250027 ,-5.78028                                                                                           
15205,Estación de tren AblaÑa,43.267493 ,-5.804693                                                                                                    
15206,Estación de tren La Perea,43.277234 ,-5.812279                                                                                                  
15207,Estación de tren Olloniego/Lluniego,43.29622  ,-5.819295                                                                                        
15208,Estación de tren Soto Rei/Soto De Rey,43.30762  ,-5.856895                                                                                      
15209,Estación de tren Les Segaes/Las Segadas De Abajo,43.312842 ,-5.86918                                                                            
15210,Estación de tren El Caleyu,43.33042  ,-5.868395                                                                                                 
15211,Estación de tren Oviedo/Uviéu,43.366841 ,-5.854263                                                                                              
15212,Estación de tren Lugones/Llugones,43.40347  ,-5.812935                                                                                          
15217,Estación de tren La Corredoria,43.383422 ,-5.830233                                                                                             
15218,Estación de tren Llamaquique,43.355864 ,-5.855475                                                                                               
15300,Estación de tren Lugo De Llanera,43.445519 ,-5.817438                                                                                           
15301,Estación de tren Villabona,43.46082  ,-5.825595                                                                                                 
15302,Estación de tren Serín,43.50482  ,-5.780395                                                                                                     
15303,Estación de tren Montiana,43.527578 ,-5.735516                                                                                                  
15305,Estación de tren Tabladiello,43.474597 ,-5.802526                                                                                               
15400,Estación de tren VeriÑa,43.54092  ,-5.725018                                                                                                    
15401,Estación de tren La Calzada,43.534132 ,-5.70981                                                                                                 
15410,Estación de tren Gijón/Xixón,43.535175 ,-5.698318                                                                                               
16001,Estación de tren Santolaya,43.31742  ,-5.812495                                                                                                 
16002,Estación de tren Veguín,43.33152  ,-5.772595                                                                                                    
16005,Estación de tren PeÑarrubia,43.32212  ,-5.722295                                                                                                
16006,Estación de tren Barros,43.3178079,-5.7109228                                                                                                   
16008,Estación de tren La Felguera,43.304594 ,-5.692439                                                                                               
16009,Estación de tren Sama,43.291503 ,-5.679332                                                                                                      
16010,Estación de tren CiaÑu,43.289192 ,-5.66793                                                                                                      
16011,Estación de tren L'entregu/El Entrego,43.289009 ,-5.631813                                                                                      
16301,Estación de tren FerroÑes,43.475556 ,-5.861372                                                                                                  
16302,Estación de tren Cancienes,43.51582  ,-5.869095                                                                                                 
16400,Estación de tren Nubledo/Nubleo,43.52212  ,-5.869295                                                                                            
16401,Estación de tren Villalegre,43.536871 ,-5.896108                                                                                                
16402,Estación de tren La Rocica,43.5467   ,-5.9052                                                                                                   
16403,Estación de tren Avilés,43.561191 ,-5.922576                                                                                                    
16405,Estación de tren San Xuan,43.58952  ,-5.932595                                                                                                  
16408,Estación de tren Los Campos,43.536675 ,-5.885115                                                                                                
17000,Estación de tren Madrid-Chamartín-Clara Campoamor,40.4720993,-3.6824687                                                                         
17001,Estación de tren Fuencarral (apt),40.5015242,-3.6824808                                                                                         
17003,Estación de tren El Goloso (apd),40.5587539,-3.7139504                                                                                          
17004,Estación de tren Tres Cantos (apt),40.5985252,-3.7155822                                                                                        
17005,Estación de tren Colmenar Viejo,40.6451853,-3.7765198                                                                                           
17009,Estación de tren Universidad Canto Blanco,40.5438226,-3.7001834                                                                                 
18000,Estación de tren Madrid - Atocha Cercanías,40.4061556,-3.6889579                                                                                
18001,Estación de tren Madrid-Recoletos,40.4234123,-3.6908535                                                                                         
18002,Estación de tren Madrid-Nuevos Ministerios,40.4466171,-3.6923408                                                                                
18003,Estación de tren M.alvaro-P,40.3956167,-3.6777094                                                                                               
18004,Estación de tren Delicias,40.4003715,-3.692763                                                                                                  
18005,Estación de tren Pirámides,40.4025917,-3.7113344                                                                                                
18101,Estación de tren Madrid-Sol,40.4168778,-3.7032107                                                                                               
19001,Estación de tren U.p.comill,40.554058 ,-3.683335                                                                                                
19002,Estación de tren Valdelasfu,40.5474433,-3.6543338                                                                                               
19003,Estación de tren Alcob.sseb,40.546566 ,-3.6351819                                                                                               
21010,Estación de tren Ferrol,43.4880349,-8.2311430                                                                                                   
35001,Estación de tren Leganés,40.3286349,-3.7711552                                                                                                  
35002,Estación de tren Fuenlabrada,40.2833747,-3.7994538                                                                                              
35009,Estación de tren Zarzaquemada,40.3406009,-3.7482111                                                                                             
35010,Estación de tren La Serna,40.2967500,-3.7926450                                                                                                 
35011,Estación de tren P.polvoran,40.3125398,-3.7835135                                                                                               
35012,Estación de tren Humanes,40.2556903,-3.8286016                                                                                                  
35600,Estación de tren Madrid-Aluche,40.3856315,-3.7607442                                                                                            
35601,Estación de tren Fanjul,40.3836517,-3.7685682                                                                                                   
35602,Estación de tren Las Aguilas,40.3811836,-3.7802739                                                                                              
35603,Estación de tren Cuatro Vientos,40.3777633,-3.7914876                                                                                           
35604,Estación de tren San Jose De Valderas,40.3565467,-3.8155715                                                                                     
35605,Estación de tren Alcorcon,40.3502521,-3.8320940                                                                                                 
35606,Estación de tren Mostoles,40.3284890,-3.8638111                                                                                                 
35607,Estación de tren Mostoles El Soto,40.330971 ,-3.882441                                                                                          
35608,Estación de tren Laguna,40.3991775,-3.7442226                                                                                                   
35609,Estación de tren Embajador.,40.4051246,-3.7026286                                                                                               
35610,Estación de tren L. Retamas,40.3420458,-3.8424115                                                                                               
35701,Estación de tren Mendez Alvaro,40.3957270,-3.6778070                                                                                            
35702,Estación de tren Doce Octub,40.3790374,-3.6988513                                                                                               
35703,Estación de tren Orcasitas,40.3666963,-3.7046002                                                                                                
35704,Estación de tren Puente Alcocer,40.3504002,-3.7051062                                                                                           
37001,Estación de tren Madrid-Villaverde Alto,40.3415512,-3.7115464                                                                                   
37002,Estación de tren Getafe Centro,40.3098934,-3.7340237                                                                                            
37010,Estación de tren Margaritas,40.3229367,-3.7272747                                                                                               
37011,Estación de tren Getafe S-3,40.2882215,-3.7375106                                                                                               
37012,Estación de tren Parla,40.2411556,-3.7692726                                                                                                    
40113,Estación de tren Cazalla-Constantina,37.9327717,-5.7044058                                                                                      
40114,Estación de tren Fabrica Del Pedroso,37.8624888,-5.7403111                                                                                      
40115,Estación de tren Pedroso,37.8373261,-5.7624477                                                                                                  
40118,Estación de tren Arenillas (apt-Cgd),37.7009472,-5.7502583                                                                                      
40119,Estación de tren Villanueva Del Río-Minas,37.6616071,-5.7121550                                                                                 
40121,Estación de tren Alcolea Del Río,37.6354388,-5.7308277                                                                                          
40122,Estación de tren Tocina,37.6092611,-5.7316916                                                                                                   
43000,Estación de tren San Jeronimo,37.434667 ,-5.982378                                                                                              
43002,Estación de tren Camas,37.4017138,-6.0371611                                                                                                    
43003,Estación de tren Villanueva Ariscal Y Oliv. (apt),37.4070916,-6.1482194                                                                         
43004,Estación de tren Sanlucar La Mayor (apd-Cgd),37.3814027,-6.1939333                                                                              
43005,Estación de tren Benacazón,37.3567611,-6.2082805                                                                                                
43026,Estación de tren Valencina-Santiponce,37.42963  ,-6.065401                                                                                      
43027,Estación de tren Salteras,37.4106611,-6.0988333                                                                                                 
50600,Estación de tren Lora Del Río,37.6613027,-5.5295472                                                                                             
50602,Estación de tren Guadajoz,37.5813944,-5.6699222                                                                                                 
50700,Estación de tren Los Rosales,37.5898444,-5.7261638                                                                                              
50701,Estación de tren Cantillana,37.5742444,-5.8031861                                                                                               
50702,Estación de tren Brenes,37.5462666,-5.8667722                                                                                                   
50703,Estación de tren La Rinconada,37.4800777,-5.9401246                                                                                             
50704,Estación de tren El CaÑamo,37.488    ,-5.9312                                                                                                   
51003,Estación de tren Sevilla-Santa Justa,37.3921277,-5.9752694                                                                                      
51009,Estación de tren P.congreso,37.4037820,-5.9362556                                                                                               
51010,Estación de tren P.pio Palm,37.3708446,-5.9394732                                                                                               
51050,Estación de tren Cartuja,37.4078985,-6.0098499                                                                                                  
51051,Estación de tren Est.olimp,37.4172225,-6.0074834                                                                                                
51100,Estación de tren Sevilla-San Bernardo,37.3775194,-5.9796                                                                                        
51103,Estación de tren Dos Hermanas,37.2872   ,-5.9235192                                                                                             
51104,Estación de tren Don Rodrigo (apt),37.2330760,-5.8467420                                                                                        
51110,Estación de tren Sevilla-Virgen Del Rocío,37.3628   ,-5.9760111                                                                                 
51111,Estación de tren Bellavista,37.3214916,-5.9641861                                                                                               
51112,Estación de tren Cantaelgallo,37.2781444,-5.9104055                                                                                             
51113,Estación de tren Jardines De Hércules,37.33273  ,-5.964503                                                                                      
51200,Estación de tren Utrera,37.1845444,-5.7907966                                                                                                   
51202,Estación de tren Las Cabezas De San Juan,37.0193453,-5.9465554                                                                                  
51203,Estación de tren Lebrija,36.9299735,-6.0864165                                                                                                  
51205,Estación de tren Jerez Aeropuerto,36.751147 ,-6.066664                                                                                          
51300,Estación de tren Jerez De La Frontera,36.6800290,-6.1264716                                                                                     
51400,Estación de tren Puerto De Santa María,36.6037962,-6.2171641                                                                                    
51401,Estación de tren Puerto Real,36.5309277,-6.1861944                                                                                              
51402,Estación de tren San Fernando Centro,36.4757694,-6.1940833                                                                                      
51404,Estación de tren Segunda Aguada,36.5134777,-6.2770083                                                                                           
51405,Estación de tren Cádiz,36.5290083,-6.2882055                                                                                                    
51406,Estación de tren San Fernando-Bahía Sur,36.4680361,-6.2067638                                                                                   
51407,Estación de tren Cadiz-Cortadura,36.4943222,-6.2682444                                                                                          
51409,Estación de tren Cádiz-Estadio,36.5028972,-6.2720638                                                                                            
51414,Estación de tren San Severiano,36.5215444,-6.28075                                                                                              
51415,Estación de tren Las Aletas,36.5446083,-6.199                                                                                                   
51416,Estación de tren Universidad,36.5300472,-6.2050222                                                                                              
51417,Estación de tren Valdelagrana,36.5848055,-6.2160444                                                                                             
51419,Estación de tren Río Arillo,36.457463 ,-6.224761                                                                                                
51450,Estación de tren Pelagatos,36.408705 ,-6.134312                                                                                                 
51451,Estación de tren La Hoya,36.411233 ,-6.139086                                                                                                   
51452,Estación de tren Reyes Católicos,36.414380 ,-6.143180                                                                                           
51453,Estación de tren Nuestra SeÑora De Los Remedios,36.420382 ,-6.144749                                                                            
51454,Estación de tren Alameda Solano,36.425359 ,-6.144507                                                                                            
51455,Estación de tren Marquesado,36.428621 ,-6.143365                                                                                                
51456,Estación de tren Pinar De Los Franceses,36.440507 ,-6.144541                                                                                    
51457,Estación de tren Tres Caminos,36.466538 ,-6.175692                                                                                              
51458,Estación de tren Venta De Vargas,36.467726 ,-6.191055                                                                                           
51459,Estación de tren Plaza De La Iglesia,36.466150 ,-6.195786                                                                                       
51460,Estación de tren Plaza Del Rey,36.463931 ,-6.198344                                                                                             
51461,Estación de tren CompaÑía De María,36.460383 ,-6.201073                                                                                         
51462,Estación de tren Plaza Del Carmen,36.458082 ,-6.203625                                                                                          
51463,Estación de tren Santo Entierro,36.455906 ,-6.209612                                                                                            
51464,Estación de tren La Ardila,36.456230 ,-6.216026                                                                                                 
54405,Estación de tren álora,36.819825 ,-4.6994424                                                                                                    
54406,Estación de tren Pizarra,36.7640611,-4.7116694                                                                                                  
54407,Estación de tren Aljaima,36.7331166,-4.6644194                                                                                                  
54408,Estación de tren Cártama,36.7337555,-4.6082320                                                                                                  
54410,Estación de tren Campanillas (apt),36.7047333,-4.5456194                                                                                        
54412,Estación de tren Los Prados,36.6985157,-4.4781625                                                                                               
54500,Estación de tren Malaga-M.z.,36.7102500,-4.4329010                                                                                              
54501,Estación de tren Victoria Kent,36.7011222,-4.4544444                                                                                            
54503,Estación de tren Guadalhorce (apd),36.6920138,-4.4838277                                                                                        
54505,Estación de tren Málaga Aeropuerto,36.6757   ,-4.48725                                                                                          
54508,Estación de tren La Colina (apd),36.6418944,-4.4926472                                                                                          
54509,Estación de tren Torremolinos,36.6225361,-4.4995805                                                                                             
54510,Estación de tren El Pinillo (apd),36.6098194,-4.5153694                                                                                         
54511,Estación de tren Benalmádena/Arroyo De La Miel,36.5990583,-4.5362333                                                                            
54512,Estación de tren Torremuelle-Benalmadena (apt),36.5822333,-4.5671138                                                                            
54513,Estación de tren Carvajal (apt),36.5701333,-4.593975                                                                                            
54514,Estación de tren Torreblanca (apd),36.5649222,-4.6067666                                                                                        
54515,Estación de tren Los Boliches (apd),36.5549140,-4.6143560                                                                                       
54516,Estación de tren Fuengirola,36.5429388,-4.6228027                                                                                               
54517,Estación de tren Malaga C.a,36.7156668,-4.4283599                                                                                               
54518,Estación de tren Los Alamos (apd),36.6450055,-4.4851111                                                                                         
54519,Estación de tren Montemar A,36.6138388,-4.5091305                                                                                               
54520,Estación de tren Plza.mayor,36.6561722,-4.4803138                                                                                               
60100,Estación de tren Madrid-Villaverde Bajo,40.3536351,-3.6839896                                                                                   
60101,Estación de tren San Cristóbal Industrial,40.3319352,-3.6986743                                                                                 
60102,Estación de tren Getafe Industrial (alicante),40.3054448,-3.7078159                                                                             
60103,Estación de tren Pinto,40.2427782,-3.7036626                                                                                                    
60104,Estación de tren Valdemoro,40.1960018,-3.6649777                                                                                                
60105,Estación de tren Ciempozuelos,40.1590740,-3.6101107                                                                                             
60107,Estación de tren San Cristobal De Los Angeles,40.3408068,-3.6839943                                                                             
60109,Estación de tren El Casar,40.3186333,-3.7100083                                                                                                 
60200,Estación de tren Aranjuez,40.0348585,-3.6182315                                                                                                 
60911,Estación de tren Alicante/Alacant,38.34445  ,-0.4950527                                                                                         
60913,Estación de tren Sant Vicent Centre,38.3972495,-0.5326435                                                                                       
60914,Estación de tren Universidad De Alicante,38.3847998,-0.5281080                                                                                  
61200,Estación de tren Murcia,37.97465  ,-1.1299555                                                                                                   
62001,Estación de tren Beniel,38.0447361,-0.9994472                                                                                                   
62002,Estación de tren Orihuela-Miguel Hernández,38.0779194,-0.94445                                                                                  
62003,Estación de tren Callosa De Segura,38.1235694,-0.8732888                                                                                        
62100,Estación de tren Albatera-Catral,38.1670972,-0.8383583                                                                                          
62101,Estación de tren Crevillent,38.2245805,-0.7817972                                                                                               
62102,Estación de tren Elche/Elx Carrús,38.2690055,-0.7063555                                                                                         
62103,Estación de tren Elche Parque/Elx Parc,38.2717784,-0.6952109                                                                                    
62104,Estación de tren Torrellano,38.2896027,-0.5825138                                                                                               
62108,Estación de tren Elx-Mercancias,38.2785340,-0.6536870                                                                                           
62109,Estación de tren Sant Gabriel,38.3287722,-0.5089444                                                                                             
64003,Estación de tren Moixent/Mogente,38.8776138,-0.7536722                                                                                          
64004,Estación de tren Vallada (apt-Cgd),38.9088166,-0.6902666                                                                                        
64005,Estación de tren Montesa (apt),38.9428444,-0.6411055                                                                                            
64006,Estación de tren Alcudia,38.9690638,-0.5864111                                                                                                  
64007,Estación de tren L'ènova Manuel,39.0501935,-0.4778516                                                                                           
64100,Estación de tren Xàtiva,38.9920972,-0.5244888                                                                                                   
64102,Estación de tren La Pobla Llarga,39.083475 ,-0.4697027                                                                                          
64103,Estación de tren Carcaixent,39.1204694,-0.4543833                                                                                               
64104,Estación de tren Alzira,39.1531194,-0.4506000                                                                                                   
64105,Estación de tren Algemesí,39.1931111,-0.4409083                                                                                                 
64107,Estación de tren Benifaió-Almussafes,39.2842194,-0.4299500                                                                                      
64200,Estación de tren Silla,39.3617388,-0.4149472                                                                                                    
64201,Estación de tren Catarroja,39.3999611,-0.3991916                                                                                                
64202,Estación de tren Massanassa,39.4091638,-0.3953194                                                                                               
64203,Estación de tren Alfafar-Benetússer,39.4223277,-0.3926                                                                                          
65000,Estación de tren Valencia-Estaciò Del Nord,39.4669346,-0.3771842                                                                                
65001,Estación de tren Roca-Cúper,39.5261277,-0.3237777                                                                                               
65002,Estación de tren Valencia F.s.l-Hospital La Fe,39.4414666,-0.3698944                                                                            
65003,Estación de tren Valencia-Cabanyal,39.4689527,-0.3345694                                                                                        
65005,Estación de tren Albuixech,39.5433   ,-0.3205777                                                                                                
65006,Estación de tren Massalfassar-Albuixech,39.5556333,-0.3182861                                                                                   
65007,Estación de tren El Puig,39.5882111,-0.3116472                                                                                                  
65008,Estación de tren Puçol,39.6171903,-0.3048578                                                                                                    
65200,Estación de tren Sagunt/Sagunto,39.6756611,-0.2715972                                                                                           
65201,Estación de tren Les Valls,39.7192801,-0.2397542                                                                                                
65202,Estación de tren Almenara,39.7487555,-0.2183805                                                                                                 
65203,Estación de tren La Llosa,39.7680118,-0.2030695                                                                                                 
65204,Estación de tren Chilches,39.7825944,-0.1903333                                                                                                 
65205,Estación de tren Moncofa,39.8208638,-0.1626861                                                                                                  
65206,Estación de tren Nules-La Vilavella,39.8531222,-0.1527555                                                                                       
65207,Estación de tren Burriana-Alquerías NiÑo Perdido,39.8964287,-0.1038666                                                                          
65208,Estación de tren Vila-Real,39.9330222,-0.0967722                                                                                                
65209,Estación de tren Almassora/Almazora,39.9548444,-0.0767722                                                                                       
65300,Estación de tren Castelló,39.9882552,-0.0524126                                                                                                 
65304,Estación de tren Orpesa/Oropesa Del Mar,40.0922580,0.13986100                                                                                   
65306,Estación de tren Torreblanca,40.2122110,0.19877900                                                                                              
65308,Estación de tren Alcalà De Xivert,40.3046900,0.22871700                                                                                         
65311,Estación de tren Benicarló-PeÑíscola,40.4276390,0.41521700                                                                                      
65312,Estación de tren Vinaròs,40.4716820,0.45572700                                                                                                  
65314,Estación de tren Ulldecona -Alcanar-La Senia,40.5959240,0.44927000                                                                              
65318,Estación de tren Benicàssim,40.0579451,0.05776460                                                                                               
65400,Estación de tren Tortosa,40.8073390,0.52293700                                                                                                  
65401,Estación de tren Camp-Redó,40.7591350,0.55583400                                                                                                
65402,Estación de tren L'aldea-Amposta-Tortosa,40.7535420,0.61431400                                                                                  
65403,Estación de tren Camarles-Deltebre,40.7747570,0.67164700                                                                                        
65404,Estación de tren L'ampolla-El Perello-Deltebre,40.8120110,0.70822100                                                                            
65405,Estación de tren L'ametlla De Mar,40.8861880,0.80042700                                                                                         
65407,Estación de tren L'hospitalet De L'infant,40.9958630,0.92073300                                                                                 
65409,Estación de tren Cambrils,41.0816480,1.0460550                                                                                                  
65411,Estación de tren Salou - Port Aventura,41.0870700,1.14548600                                                                                    
65420,Estación de tren L'hospitalet De L'infant,40.9958630,0.92073300                                                                                 
65422,Estación de tren Cambrils,41.0816480,1.0460550                                                                                                  
66200,Estación de tren Utiel,39.5717140,-1.2036330                                                                                                    
66201,Estación de tren San Antonio De Requena,39.5222444,-1.1503527                                                                                   
66202,Estación de tren Requena,39.4912   ,-1.104675                                                                                                   
66203,Estación de tren El Rebollar,39.4772611,-1.0115972                                                                                              
66204,Estación de tren Siete Aguas,39.4568638,-0.9030444                                                                                              
66205,Estación de tren Venta Mina-Siete Aguas,39.4542861,-0.8701861                                                                                   
66206,Estación de tren BuÑol,39.427175 ,-0.7868888                                                                                                    
66207,Estación de tren Chiva,39.4710444,-0.7228888                                                                                                    
66208,Estación de tren Cheste,39.4908222,-0.6862916                                                                                                   
66209,Estación de tren Loriguilla-Reva,39.4857027,-0.5673694                                                                                          
66210,Estación de tren Circuit Ricardo Tormo,39.4955527,-0.6255277                                                                                    
66211,Estación de tren Aldaia,39.4610444,-0.4632388                                                                                                   
66212,Estación de tren Valencia Sant Isidre,39.4526833,-0.4058694                                                                                     
66214,Estación de tren Xirivella-Alqueries,39.4625527,-0.4321861                                                                                      
67211,Estación de tren Caudiel (apt),39.9473166,-0.5720277                                                                                            
67212,Estación de tren Jérica-Viver (apt),39.9146309,-0.5689031                                                                                       
67213,Estación de tren Navajas (apt),39.8740271,-0.5060235                                                                                            
67214,Estación de tren Segorbe-Arrabal,39.85445  ,-0.4932694                                                                                          
67215,Estación de tren Segorbe,39.8469583,-0.4824138                                                                                                  
67216,Estación de tren Algimia-C,39.7460638,-0.3673135                                                                                                
67217,Estación de tren Soneja,39.81255  ,-0.4318972                                                                                                   
67221,Estación de tren Estivella-Albalat Dels Tarongers,39.7063753,-0.3483269                                                                         
67223,Estación de tren Gilet (apd),39.6792861,-0.3206055                                                                                              
69101,Estación de tren El Romani,39.3029777,-0.3941055                                                                                                
69102,Estación de tren Sollana (apt),39.2793083,-0.3793138                                                                                            
69103,Estación de tren Sueca,39.2055611,-0.307825                                                                                                     
69104,Estación de tren Cullera,39.1778305,-0.2632361                                                                                                  
69105,Estación de tren Tavernes De La Valldigna,39.0790027,-0.2262833                                                                                 
69107,Estación de tren Xeraco,39.0262694,-0.2146694                                                                                                   
69110,Estación de tren Gandía,38.9702805,-0.1797722                                                                                                   
69111,Estación de tren Platja-Gan,38.9913319,-0.1611829                                                                                               
69200,Estación de tren Xiriv_l´al,39.4636472,-0.4209361                                                                                               
70001,Estación de tren Vallecas,40.3820447,-3.6246888                                                                                                 
70002,Estación de tren Asamblea De Mad. Entrevías,40.3816176,-3.6679819                                                                               
70003,Estación de tren El Pozo,40.3760524,-3.6562354                                                                                                  
70005,Estación de tren Vallecas,40.3823640,-3.6230420                                                                                                 
70100,Estación de tren Vicálvaro,40.4012112,-3.5959811                                                                                                
70101,Estación de tren San Fernando Henares,40.4425370,-3.5344609                                                                                     
70102,Estación de tren Torrejón De Ardoz,40.4547384,-3.4797415                                                                                        
70103,Estación de tren Alcala De Henares,40.4889113,-3.3662523                                                                                        
70104,Estación de tren Meco (apd-Cgd),40.5344356,-3.2990455                                                                                           
70105,Estación de tren Azuqueca,40.5610437,-3.2653569                                                                                                 
70107,Estación de tren Alcalá Henares-Universidad (apd),40.5052933,-3.3352443                                                                         
70108,Estación de tren Coslada (apd),40.4232210,-3.5611137                                                                                            
70109,Estación de tren Santa Eugenia,40.3869128,-3.6089604                                                                                            
70111,Estación de tren La Garena,40.4804888,-3.3930758                                                                                                
70112,Estación de tren Soto Del Henares,40.4638889,-3.4422222                                                                                         
70200,Estación de tren Guadalajara,40.6441032,-3.1822298                                                                                              
70800,Estación de tren Casetas,41.72265  ,-1.020175                                                                                                   
70801,Estación de tren Utebo,41.7105305,-0.9979222                                                                                                    
70806,Estación de tren Zaragoza Portillo,41.6526636,-0.896165                                                                                         
70807,Estación de tren Zaragoza Goya,41.644103 ,-0.891188                                                                                             
71100,Estación de tren Zaragoza Miraflores,41.62977  ,-0.863064                                                                                       
71102,Estación de tren El Burgo De Ebro,41.5665270,-0.7398390                                                                                         
71103,Estación de tren Fuentes De Ebro,41.5150650,-0.6186250                                                                                          
71104,Estación de tren Pina De Ebro,41.4800970,-0.5572770                                                                                             
71105,Estación de tren Quinto,41.4195280,-0.4906730                                                                                                   
71108,Estación de tren La Zaida-Sástago,41.3205420,-0.4271150                                                                                         
71109,Estación de tren Azaila,41.2761780,-0.4858230                                                                                                   
71200,Estación de tren La Puebla De Híjar,41.2244000,-0.4385950                                                                                       
71201,Estación de tren Samper,41.1821830,-0.3687610                                                                                                   
71202,Estación de tren Escatrón,41.2126740,-0.2899790                                                                                                 
71203,Estación de tren Chiprana,41.2315810,-0.1544950                                                                                                 
71204,Estación de tren Caspe,41.2397380,-0.0427010                                                                                                    
71205,Estación de tren Val De Pilas,41.2300560,0.07014500                                                                                             
71206,Estación de tren Fabara,41.2344050,0.14328400                                                                                                   
71207,Estación de tren Nonaspe,41.2137880,0.24247200                                                                                                  
71208,Estación de tren Faió-La Pobla De Massaluca (fayón),41.2252470,0.35027500                                                                       
71209,Estación de tren Riba-Roja D'ebre,41.2484510,0.48088800                                                                                         
71210,Estación de tren Flix,41.2295020,0.54007100                                                                                                     
71211,Estación de tren Ascó,41.1824790,0.56896400                                                                                                     
71300,Estación de tren Mora La Nova,41.1063740,0.65289300                                                                                             
71301,Estación de tren Els Guiamets,41.0934620,0.74717300                                                                                             
71302,Estación de tren Capçanes,41.1020570,0.78033000                                                                                                 
71303,Estación de tren Marçà-Falset,41.1309450,0.81032800                                                                                             
71304,Estación de tren Pradell De La Teixeta,41.1332400,0.85837100                                                                                    
71305,Estación de tren Duesaigües-L'argentera,41.1437760,0.92094200                                                                                   
71306,Estación de tren Riudecanyes-Botarell,41.1400270,0.97564800                                                                                     
71307,Estación de tren Les Borges Del Camp,41.1655250,1.02077400                                                                                      
71400,Estación de tren Reus,41.1605240,1.09997900                                                                                                     
71401,Estación de tren Vila-Seca,41.1127440,1.15038900                                                                                                
71500,Estación de tren Tarragona,41.1116240,1.25321400                                                                                                
71502,Estación de tren Altafulla-Tamarit,41.1364460,1.37453000                                                                                        
71503,Estación de tren Torredembarra,41.1428570,1.40566000                                                                                            
71600,Estación de tren Sant Vicenç De Calders,41.186245 ,1.526315                                                                                     
71601,Estación de tren Calafell,41.188736 ,1.567244                                                                                                   
71602,Estación de tren Segur De Calafell,41.192544 ,1.607745                                                                                          
71603,Estación de tren Cunit,41.195912 ,1.631307                                                                                                      
71604,Estación de tren Cubelles,41.204112 ,1.671807                                                                                                   
71700,Estación de tren Vilanova I La Geltrú,41.219993 ,1.733331                                                                                       
71701,Estación de tren Sitges,41.237757 ,1.81694                                                                                                      
71703,Estación de tren Garraf (apt),41.254712 ,1.904007                                                                                               
71704,Estación de tren Platja De Castelldefels,41.2670124,1.9567717                                                                                   
71705,Estación de tren Castelldefels,41.2785372,1.9782562                                                                                             
71706,Estación de tren Gavà,41.304209 ,2.012793                                                                                                       
71707,Estación de tren El Prat De Llobregat,41.330762 ,2.088982                                                                                       
71708,Estación de tren Bellvitge,41.354261 ,2.115549                                                                                                  
71709,Estación de tren Viladecans,41.309407 ,2.0277                                                                                                   
71801,Estación de tren Barcelona-Sants,41.37922  ,2.140624                                                                                            
71802,Estación de tren Barcelona-Passeig De Gracia,41.392281 ,2.164896                                                                                
72100,Estación de tren Roda De Bara,41.1840520,1.44015300                                                                                             
72101,Estación de tren Roda De Mar,41.1863150,1.45514430                                                                                              
72201,Estación de tren El Vendrell,41.220531 ,1.537775                                                                                                
72202,Estación de tren L'arboc,41.273412 ,1.600516                                                                                                    
72203,Estación de tren Els Monjos,41.316708 ,1.662007                                                                                                 
72204,Estación de tren Vilafranca Del Penedes,41.344856 ,1.703676                                                                                     
72205,Estación de tren La Granada,41.370925 ,1.725083                                                                                                 
72206,Estación de tren Lavern-Subirats (apd),41.395755 ,1.768162                                                                                      
72207,Estación de tren Sant Sadurni D'anoia,41.419824 ,1.794186                                                                                       
72208,Estación de tren Gelida (apd),41.442478 ,1.850896                                                                                               
72209,Estación de tren Martorell,41.479459 ,1.929874                                                                                                  
72210,Estación de tren Castellbisbal,41.473263 ,1.967619                                                                                              
72211,Estación de tren El Papiol (apd),41.435304 ,2.002477                                                                                            
72300,Estación de tren Molins De Rei,41.409953 ,2.020864                                                                                              
72301,Estación de tren Sant Feliu De Llobregat,41.383049 ,2.048042                                                                                    
72302,Estación de tren Sant Joan Despi (apd),41.368619 ,2.060305                                                                                      
72303,Estación de tren Cornella,41.357469 ,2.070566                                                                                                   
72305,Estación de tren L'hospitalet De Llobregat,41.364129 ,2.100766                                                                                  
72400,Estación de tren El Prat Aeroport,41.303844 ,2.07218                                                                                            
72501,Estación de tren Rubi,41.475318 ,2.037135                                                                                                       
72502,Estación de tren Sant Cugat,41.481295 ,2.080439                                                                                                 
72503,Estación de tren Cerdanyola Universiti,41.496992 ,2.115035                                                                                      
72508,Estación de tren Santa Perpetua De Mogoda Riera De Caldes,41.5246497,2.1877809                                                                  
73001,Estación de tren Puigverd De Lleida-Artesa De Lleida,41.5536500,0.73305800                                                                      
73002,Estación de tren Juneda,41.5438790,0.82558400                                                                                                   
73003,Estación de tren Les Borges Blanques,41.5214610,0.87771500                                                                                      
73004,Estación de tren La Floresta,41.5042630,0.92430300                                                                                              
73005,Estación de tren Vinaixa,41.4250770,0.97030800                                                                                                  
73006,Estación de tren Vimbodí I Poblet,41.4026100,1.04600800                                                                                         
73007,Estación de tren L'espluga De Francoli,41.4005250,1.10338900                                                                                    
73008,Estación de tren Montblanc,41.3766480,1.16543100                                                                                                
73009,Estación de tren Vilaverd,41.3376020,1.17659900                                                                                                 
73010,Estación de tren La Riba,41.3183540,1.18124800                                                                                                  
73100,Estación de tren La Plana-Picamoixons,41.3059700,1.19766500                                                                                     
73101,Estación de tren Alcover,41.2616580,1.17422800                                                                                                  
73102,Estación de tren La Selva Del Camp,41.2102840,1.14407200                                                                                        
75101,Estación de tren Alcoletge,41.6542670,0.68570700                                                                                                
75102,Estación de tren Vilanova De La Barca,41.6873810,0.72789800                                                                                     
75103,Estación de tren Térmens,41.7165250,0.76304600                                                                                                  
75104,Estación de tren Vallfogona De Balaguer,41.7557510,0.80561200                                                                                   
75105,Estación de tren Balaguer,41.7893330,0.81475000                                                                                                 
75106,Estación de tren Gerb,41.8233290,0.81202300                                                                                                     
75107,Estación de tren Sant Llorenç De Montgai,41.8664090,0.83242400                                                                                  
75108,Estación de tren Vilanova De La Sal,41.9120660,0.83030500                                                                                       
75109,Estación de tren Santa LiÑa,41.9317760,0.85243300                                                                                               
75110,Estación de tren Ager,42.0067390,0.85161700                                                                                                     
75111,Estación de tren Cellers-Llimiana,42.0586990,0.88286800                                                                                         
75112,Estación de tren Guardia De Tremp,42.1014190,0.88804700                                                                                         
75113,Estación de tren Palau-Puigcercos,42.1469550,0.89244100                                                                                         
75114,Estación de tren Tremp,42.1673640,0.89113700                                                                                                    
75115,Estación de tren Salas De Pallars,42.2068450,0.94044700                                                                                         
75116,Estación de tren La Pobla De Segur,42.2398540,0.96610700                                                                                        
76001,Estación de tren Salomó,41.2234740,1.37661700                                                                                                   
76002,Estación de tren Vilabella,41.2403120,1.31560100                                                                                                
76003,Estación de tren Nulles-Bràfim,41.2503060,1.29744900                                                                                            
76004,Estación de tren Valls,41.2896300,1.25873400                                                                                                    
77002,Estación de tren Montcada-Ripollet,41.496658 ,2.182072                                                                                          
77003,Estación de tren Santa Perpetua De Mogoda La Florida,41.521426 ,2.193917                                                                        
77004,Estación de tren Mollet-Santa Rosa,41.535064 ,2.205846                                                                                          
77005,Estación de tren Parets Del Vallés,41.560527 ,2.255996                                                                                          
77006,Estación de tren Granollers-Canovelles,41.6113633,2.2769926                                                                                     
77100,Estación de tren Les Franqueses Del Vallés,41.624639 ,2.298077                                                                                  
77102,Estación de tren La Garriga,41.684575 ,2.288761                                                                                                 
77103,Estación de tren Figaró,41.7233684,2.271161                                                                                                     
77104,Estación de tren Sant Martí De Centelles,41.760542 ,2.24972                                                                                     
77105,Estación de tren Centelles,41.797834 ,2.223428                                                                                                  
77106,Estación de tren Els Hostalets De Balenyà,41.843129 ,2.250218                                                                                   
77107,Estación de tren Balenyà,41.852564 ,2.264253                                                                                                    
77109,Estación de tren Vic,41.930805 ,2.248776                                                                                                        
77110,Estación de tren Manlleu,41.998912 ,2.269314                                                                                                    
77111,Estación de tren Torelló,42.05217  ,2.259369                                                                                                    
77112,Estación de tren Borgonyà (apd),42.065014 ,2.241286                                                                                             
77113,Estación de tren Sant Quirze De Besora-Montesquiu,42.104658 ,2.216977                                                                           
77114,Estación de tren La Farga De Bebié,42.130061 ,2.203924                                                                                          
77200,Estación de tren Ripoll,42.195536 ,2.195977                                                                                                     
77301,Estación de tren Campdevànol,42.221558 ,2.165877                                                                                                
77303,Estación de tren Ribes De Freser,42.301158 ,2.166078                                                                                            
77304,Estación de tren Planoles (apt),42.313559 ,2.103078                                                                                             
77305,Estación de tren Toses (apt),42.324189 ,2.029728                                                                                                
77306,Estación de tren La Molina,42.344529 ,1.956006                                                                                                  
77307,Estación de tren Urtx-Alp (apt),42.375375 ,1.899526                                                                                             
77309,Estación de tren Puigcerdà,42.428908 ,1.924085                                                                                                  
77310,Estación de tren La Tour De Carol,42.458629 ,1.904703                                                                                           
78005,Estación de tren Villanueva De Gállego,41.7655100,-0.8222040                                                                                    
78100,Estación de tren Zuera,41.8771660,-0.7641720                                                                                                    
78200,Estación de tren Tardienta,41.9757160,-0.5382230                                                                                                
78201,Estación de tren GraÑén,41.9380330,-0.3693290                                                                                                   
78202,Estación de tren Marcen-PoleÑino,41.8819110,-0.2834560                                                                                          
78203,Estación de tren SariÑena,41.8175290,-0.1707600                                                                                                 
78300,Estación de tren Selgua,41.9063330,0.14818700                                                                                                   
78301,Estación de tren Monzón-Río Cinca,41.9136790,0.19693900                                                                                         
78302,Estación de tren Binéfar,41.8497680,0.29147800                                                                                                  
78400,Estación de tren Lleida,41.6206960,0.63266900                                                                                                   
78402,Estación de tren Bell-Lloc D'urgell,41.6316190,0.78154700                                                                                       
78403,Estación de tren Mollerussa,41.6317790,0.89677500                                                                                               
78404,Estación de tren Golmés,41.6359290,0.93086300                                                                                                   
78405,Estación de tren Castellnou De Seana,41.6374640,0.96773600                                                                                      
78406,Estación de tren Bellpuig,41.6325450,1.01299300                                                                                                 
78407,Estación de tren Anglesola,41.6464480,1.07919200                                                                                                
78408,Estación de tren Tárrega,41.6503870,1.13896300                                                                                                  
78500,Estación de tren Cervera,41.6736110,1.27477300                                                                                                  
78501,Estación de tren Sant Guim De Freixenet,41.6559240,1.42053000                                                                                   
78502,Estación de tren Sant Martí Sesgueioles,41.7012170,1.48620400                                                                                   
78503,Estación de tren Calaf,41.7303340,1.51509700                                                                                                    
78504,Estación de tren Seguers-Sant Pere Sallavinera,41.7479910,1.57416700                                                                            
78505,Estación de tren Aguilar De Segarra,41.7389170,1.62372000                                                                                       
78506,Estación de tren Rajadell,41.7331590,1.69627500                                                                                                 
78600,Estación de tren Manresa,41.720129 ,1.82899                                                                                                     
78604,Estación de tren Sant Vicenç De Castellet,41.667899 ,1.863451                                                                                   
78605,Estación de tren Castellbell I El Vilar-Monistrol Monts,41.628059 ,1.869875                                                                     
78606,Estación de tren Vacarisses,41.6019242,1.8918433                                                                                                
78607,Estación de tren Vacarisses-Torreblanca,41.577138 ,1.921807                                                                                     
78609,Estación de tren Viladecavalls,41.565479 ,1.954342                                                                                              
78610,Estación de tren Sant Miquel De Gonteres,41.568123 ,1.975712                                                                                    
78700,Estación de tren Terrassa,41.570159 ,2.019075                                                                                                   
78703,Estación de tren Sabadell Sud,41.53662  ,2.105617                                                                                               
78704,Estación de tren Sabadell Centre,41.549572 ,2.114757                                                                                            
78705,Estación de tren Barberá Del Vallés,41.507162 ,2.127558                                                                                         
78706,Estación de tren Cerdanyola Del Vallés,41.492582 ,2.14763                                                                                       
78707,Estación de tren Montcada I Reixac-Santa María,41.481232 ,2.166922                                                                              
78708,Estación de tren Montcada I Reixac-Manresa,41.483996 ,2.185513                                                                                  
78709,Estación de tren Sabadell Nord,41.562871 ,2.087794                                                                                              
78710,Estación de tren Terrasa Est,41.567261 ,2.041561                                                                                                
78800,Estación de tren Montcada Bifurcació,41.468992 ,2.178904                                                                                        
78801,Estación de tren Barcelona-Torre Del Baró,41.460945 ,2.181042                                                                                   
78802,Estación de tren Sant Andreu Arenal,41.430893 ,2.183095                                                                                         
78804,Estación de tren Barcelona-Arc De Triomf,41.391864 ,2.180076                                                                                    
78805,Estación de tren Barcelona-Plaça De Catalunya,41.386726 ,2.166458                                                                               
78806,Estación de tren Barcelona La Sagrera Meridiana,41.422638 ,2.187262                                                                             
79004,Estación de tren Barcelona-Sant Andreu,41.435807 ,2.193572                                                                                      
79005,Estación de tren Montcada I Reixac,41.483833 ,2.188193                                                                                          
79006,Estación de tren Mollet-Sant Fost,41.530069 ,2.215485                                                                                           
79007,Estación de tren Montmelo,41.5519598,2.2517501                                                                                                  
79009,Estación de tren Barcelona-Clot-Aragó,41.41745  ,2.192893                                                                                       
79011,Estación de tren Llagosta,41.510428 ,2.199740                                                                                                   
79100,Estación de tren Granollers Centre,41.594528 ,2.29107                                                                                           
79101,Estación de tren Cardedeu,41.635258 ,2.360275                                                                                                   
79102,Estación de tren Llinars Del Valles,41.636058 ,2.403675                                                                                         
79103,Estación de tren Palautordera (apd),41.670899 ,2.452823                                                                                         
79104,Estación de tren Sant Celoni,41.686024 ,2.491262                                                                                                
79105,Estación de tren Gualba,41.714078 ,2.533778                                                                                                     
79106,Estación de tren Riells I Viabrea-Breda,41.723357 ,2.560075                                                                                     
79107,Estación de tren Hostalric,41.747657 ,2.632175                                                                                                  
79109,Estación de tren Les Franqueses-Granollers Nord,41.617306 ,2.292859                                                                             
79200,Estación de tren Maçanet-Massanes,41.778657 ,2.678775                                                                                           
79202,Estación de tren Sils,41.8076830,2.74486000                                                                                                     
79203,Estación de tren Caldes De Malavella,41.8410980,2.80076500                                                                                      
79204,Estación de tren Riudellots,41.8962320,2.81159900                                                                                               
79205,Estación de tren Fornells De La Selva,41.9351570,2.80973200                                                                                     
79300,Estación de tren Girona,41.9793030,2.81700600                                                                                                   
79301,Estación de tren Celrà,42.0272300,2.87496900                                                                                                    
79302,Estación de tren Bordils-Juià,42.0370680,2.91525500                                                                                             
79303,Estación de tren Flaçà,42.0475960,2.95750600                                                                                                    
79304,Estación de tren Sant Jordi Desvalls,42.0683190,2.96453300                                                                                      
79305,Estación de tren Camallera,42.1223590,2.96544800                                                                                                
79306,Estación de tren Sant Miquel De Fluvià,42.1720870,2.98966300                                                                                    
79308,Estación de tren Vilamalla,42.2162020,2.97787400                                                                                                
79309,Estación de tren Figueres,42.2650650,2.96878700                                                                                                 
79311,Estación de tren Vilajuiga,42.3257390,3.08538500                                                                                                
79312,Estación de tren Llançà,42.3665949,3.14898700                                                                                                   
79314,Estación de tren Colera,42.4070680,3.15426200                                                                                                   
79315,Estación de tren Portbou,42.4244940,3.15785800                                                                                                  
79316,Estación de tren Cerbère,42.4414760,3.16325900                                                                                                  
79400,Estación de tren Barcelona-Estació De França,41.384089 ,2.187004                                                                                
79403,Estación de tren Sant Adrià De Besòs (apd),41.424665 ,2.230761                                                                                  
79404,Estación de tren Badalona,41.445802 ,2.249257                                                                                                   
79405,Estación de tren Montgat,41.468777 ,2.286819                                                                                                    
79406,Estación de tren Montgat-Nord (p),41.471542 ,2.293911                                                                                           
79407,Estación de tren El Masnou,41.477702 ,2.314362                                                                                                  
79408,Estación de tren Ocata (apd),41.483293 ,2.337839                                                                                                
79409,Estación de tren Premiá De Mar Apeadero,41.488348 ,2.357075                                                                                     
79410,Estación de tren Vilassar De Mar,41.501746 ,2.392842                                                                                            
79412,Estación de tren Cabrera De Mar,41.504169 ,2.387135                                                                                             
79500,Estación de tren Mataró,41.533245 ,2.445797                                                                                                     
79501,Estación de tren Sant Andreu De Llavaneres (apt),41.55596  ,2.50184                                                                             
79502,Estación de tren Caldes D'estrac,41.569216 ,2.527982                                                                                            
79600,Estación de tren Arenys De Mar,41.578795 ,2.552336                                                                                              
79601,Estación de tren Canet De Mar,41.587123 ,2.583146                                                                                               
79602,Estación de tren Sant Pol De Mar,41.600184 ,2.627001                                                                                            
79603,Estación de tren Calella,41.614691 ,2.666203                                                                                                    
79604,Estación de tren Pineda De Mar,41.622203 ,2.693515                                                                                              
79605,Estación de tren Malgrat Del Mar,41.642728 ,2.744502                                                                                            
79606,Estación de tren Blanes,41.672594 ,2.769389                                                                                                     
79607,Estación de tren Tordera,41.70643  ,2.721235                                                                                                    
79608,Estación de tren Sta.susann,41.629763 ,2.714036                                                                                                 
97100,Estación de tren Pitis,40.4954011,-3.7260638                                                                                                    
97200,Estación de tren Mirasierra-Paco De Lucía,40.499662 ,-3.709016                                                                                  
97201,Estación de tren Madrid-Ramón Y Cajal,40.4882980,-3.6946827                                                                                     
98003,Estación de tren Fte De La Mora,40.4847940,-3.6628860                                                                                           
98304,Estación de tren Valdebebas,40.482    ,-3.616292                                                                                                
98305,Estación de tren Madrid-Aeropuerto T4,40.49174  ,-3.593473                                                                                      
